{
  "type": "FeatureCollection",
  "features": [
    {
      "type": "Feature",
      "properties": {
        "name": "Neusiedl", 
        "description": "Mast (6m) auf der Mole im Südhafen"
      },
      "geometry": {
        "type": "Point",
        "coordinates": [
          16.83905839920044,
          47.92678537097428
        ]
      }
    }, {
      "type": "Feature",
      "properties": {
        "name": "Weiden",
        "description": "Mast Kanaleinfahrt, von See kommend links"
      },
      "geometry": {
        "type": "Point",
        "coordinates": [
          16.852324604988098,
          47.91676988066716
        ]
      }
    },
    {
      "type": "Feature",
      "properties": {
        "name": "Podersdorf",
        "description": "Leuchtturm an der Außenmole"
      },
      "geometry": {
        "type": "Point",
        "coordinates": [
          16.82660222053528,
          47.86044430420972
        ]
      }
    },
    {
      "type": "Feature",
      "properties": {
        "name": "Illmitz Hoelle",
        "description": "Mast (7m) am Haus des Wasserleitungsverbandes"
      },
      "geometry": {
        "type": "Point",
        "coordinates": [
          16.783568859100342,
          47.80366112153503
        ]
      }
    },
    {
      "type": "Feature",
      "properties": {
        "name": "Illmitz Seebad",
        "description": "Mast in der Badeanlage - Gemeindehafen, südl. des YCI"
      },
      "geometry": {
        "type": "Point",
        "coordinates": [
          16.74243450164795,
          47.75597336364066
        ]
      }
    },
    {
      "type": "Feature",
      "properties": {
        "name": "Fertoerakos",
        "description": "Mast am Haus des Wasserverbandes"
      },
      "geometry": {
        "type": "Point",
        "coordinates": [
          16.693049669265747,
          47.72025011377023
        ]
      }
    },
    {
      "type": "Feature",
      "properties": {
        "name": "Moerbisch",
        "description": "am Mast (8m) des Polizei- und Zollwachhauses"
      },
      "geometry": {
        "type": "Point",
        "coordinates": [
          16.69799566268921,
          47.75151560961905
        ]
      }
    },
    {
      "type": "Feature",
      "properties": {
        "name": "Rust",
        "description": "Turm mit Mast (10m) am Clubhaus des Burgenländischen Yachtclubs (BYC)"
      },
      "geometry": {
        "type": "Point",
        "coordinates": [
          16.699449419975277,
          47.80355302733955
        ]
      }
    },
    {
      "type": "Feature",
      "properties": {
        "name": "Oggau",
        "description": "Mast (20m) bei Kanaleinfahrt"
      },
      "geometry": {
        "type": "Point",
        "coordinates": [
          16.70109093189239,
          47.845127464583896
        ]
      }
    },
    {
      "type": "Feature",
      "properties": {
        "name": "Purbach",
        "description": "Mast (5m) am Fußwegende, Anfang Kanaleinfahrt"
      },
      "geometry": {
        "type": "Point",
        "coordinates": [
          16.74595355987549,
          47.90095900403078
        ]
      }
    },
    {
      "type": "Feature",
      "properties": {
        "name": "Breitenbrunn",
        "description": "Flaggenmast (15m) im Yachtclub Breitenbrunn (YCBb)"
      },
      "geometry": {
        "type": "Point",
        "coordinates": [
          16.77010416984558,
          47.91620901340048
        ]
      }
    }
 ]
}
